City_ID,City,Lat,Lng,Max Temp,Humidity,Cloudiness,Wind Speed,Country
0,jinchang,38.4953,102.1739,267.99,36,100,1.23,CN
1,busselton,-33.65,115.3333,285.93,79,6,6.58,AU
2,qaanaaq,77.484,-69.3632,249.49,66,53,3.95,GL
3,rikitea,-23.1203,-134.9692,299.43,76,11,6.64,PF
4,abalak,58.1286,68.5944,262.73,98,96,1.86,RU
5,albany,42.6001,-73.9662,270.57,45,42,2.95,US
6,hithadhoo,-0.6,73.0833,300.22,77,31,4.71,MV
7,mao,39.8885,4.2658,282.46,81,0,3.09,ES
8,aksarka,66.5606,67.7975,256.68,99,72,3.33,RU
9,thompson,55.7435,-97.8558,246.24,63,75,4.63,CA
10,axim,4.8699,-2.2405,299.52,87,1,4.13,GH
11,kudahuvadhoo,2.6708,72.8944,299.81,67,74,5.34,MV
12,richards bay,-28.783,32.0377,296.42,88,92,5.94,ZA
13,lazaro cardenas,17.9583,-102.2,301.29,52,3,4.37,MX
14,honningsvag,70.9821,25.9704,273.01,86,75,8.75,NO
15,puerto maldonado,-12.6,-69.1833,299.37,94,75,3.6,PE
16,esperance,-33.8667,121.9,289.29,72,72,5.15,AU
17,ushuaia,-54.8,-68.3,287.96,63,75,6.69,AR
18,cape town,-33.9258,18.4232,293.38,74,40,7.72,ZA
19,puerto ayora,-0.7393,-90.3518,303.13,92,85,2.24,EC
20,georgetown,5.4112,100.3354,299.11,93,20,1.03,MY
21,sabha,27.0377,14.4283,282.86,40,0,3.14,LY
22,kapaa,22.0752,-159.319,300.64,77,0,2.57,US
23,waingapu,-9.6567,120.2641,298.59,86,94,3.08,ID
24,carnarvon,-24.8667,113.6333,299.2,76,77,4.91,AU
25,yellowknife,62.456,-114.3525,240.68,68,20,2.57,CA
26,kiruna,67.8557,20.2251,260.66,92,40,1.54,SE
27,tuktoyaktuk,69.4541,-133.0374,239.63,99,21,2.22,CA
28,winnemucca,40.973,-117.7357,275.26,43,64,1.04,US
29,baoning,25.3378,110.026,287.75,72,100,1.62,CN
30,mataura,-46.1927,168.8643,297.16,62,40,1.33,NZ
31,misratah,32.3754,15.0925,287.0,64,33,0.79,LY
32,limon,10.0,-83.0333,301.09,69,0,3.09,CR
33,barbosa ferraz,-24.03,-52.0117,295.94,94,45,1.21,BR
34,pombas,17.1503,-25.0201,293.03,74,88,7.78,CV
35,portland,45.5234,-122.6762,284.02,54,40,2.24,US
36,honiara,-9.4333,159.95,299.8,83,93,0.36,SB
37,port elizabeth,-33.918,25.5701,292.77,88,21,2.68,ZA
38,khatanga,71.9667,102.5,238.84,97,99,2.22,RU
39,lompoc,34.6391,-120.4579,293.23,56,10,3.58,US
40,maihar,24.2667,80.75,284.29,40,2,2.04,IN
41,port moresby,-9.4431,147.1797,299.11,82,100,2.25,PG
42,damavand,35.7178,52.065,266.69,73,0,3.05,IR
43,bluff,-46.6,168.3333,292.5,83,43,1.21,NZ
44,tiksi,71.6872,128.8694,245.52,97,98,4.55,RU
45,jamestown,42.097,-79.2353,268.92,66,75,2.06,US
46,vao,-22.6667,167.4833,299.43,77,57,2.01,NC
47,el alto,-4.2714,-81.2147,299.96,68,69,4.68,PE
48,namibe,-15.1961,12.1522,295.26,80,74,1.58,AO
49,butaritari,3.0707,172.7902,300.16,78,70,7.65,KI
50,hobart,-42.8794,147.3294,286.63,60,75,4.63,AU
51,abu dhabi,24.4667,54.3667,295.16,43,0,1.54,AE
52,nome,64.5011,-165.4064,258.19,92,20,0.0,US
53,maun,-19.9833,23.4167,298.13,78,40,3.09,BW
54,airai,-8.9266,125.4092,289.69,95,99,0.77,TL
55,upernavik,72.7868,-56.1549,247.9,100,100,0.71,GL
56,pevek,69.7008,170.3133,251.43,96,33,0.96,RU
57,hermanus,-34.4187,19.2345,291.37,80,99,2.92,ZA
58,namwala,-15.7504,26.4384,291.8,95,100,0.67,ZM
59,east london,-33.0153,27.9116,295.15,82,16,7.51,ZA
60,ewa beach,21.3156,-158.0072,301.12,64,0,4.12,US
61,bambanglipuro,-7.95,110.2833,297.15,91,100,1.91,ID
62,beaverlodge,55.2166,-119.4361,254.79,93,100,3.29,CA
63,punta arenas,-53.15,-70.9167,290.21,48,75,15.43,CL
64,tautira,-17.7333,-149.15,300.84,74,34,8.61,PF
65,morro bay,35.3658,-120.8499,291.81,47,22,2.56,US
66,constitucion,-35.3333,-72.4167,292.97,60,12,7.52,CL
67,port lincoln,-34.7333,135.8667,289.29,69,94,9.43,AU
68,eyl,7.9803,49.8164,296.29,72,3,6.5,SO
69,ribeira grande,38.5167,-28.7,287.37,77,20,4.12,PT
70,muros,42.7762,-9.0603,280.84,82,4,3.69,ES
71,barrow,71.2906,-156.7887,250.16,77,0,9.26,US
72,arraial do cabo,-22.9661,-42.0278,301.13,74,20,5.66,BR
73,biak,-0.9131,122.8766,297.27,85,100,2.43,ID
74,santa barbara,34.7333,-120.0343,290.37,24,0,3.6,US
75,hilo,19.7297,-155.09,304.42,71,0,4.63,US
76,maragogi,-9.0122,-35.2225,298.88,80,25,3.16,BR
77,mirnyy,62.5353,113.9611,244.39,75,88,4.02,RU
78,hofn,64.2539,-15.2082,271.3,65,79,4.34,IS
79,tuatapere,-46.1333,167.6833,296.39,61,45,2.11,NZ
80,torbay,47.6666,-52.7314,262.46,79,20,3.09,CA
81,bilma,18.6853,12.9164,290.08,14,10,4.38,NE
82,monzon,41.9108,0.1941,275.24,79,0,1.33,ES
83,bethel,41.3712,-73.414,274.83,44,0,2.06,US
84,dikson,73.5069,80.5464,255.52,89,95,4.05,RU
85,taltal,-25.4,-70.4833,295.76,72,63,2.7,CL
86,cidreira,-30.1811,-50.2056,298.79,82,0,4.05,BR
87,perth,-31.9333,115.8333,289.84,65,0,7.2,AU
88,kruisfontein,-34.0033,24.7314,290.86,86,0,2.88,ZA
89,mogadishu,2.0371,45.3438,297.76,78,1,7.44,SO
90,san policarpo,12.1791,125.5072,299.18,86,83,6.42,PH
91,norman wells,65.282,-126.8329,244.86,98,73,0.94,CA
92,san patricio,28.017,-97.5169,278.08,89,100,4.56,US
93,roald,62.5833,6.1333,275.24,93,75,5.14,NO
94,dingle,10.9995,122.6711,296.45,96,77,3.67,PH
95,asfi,32.2994,-9.2372,285.58,72,6,6.52,MA
96,martapura,-3.4167,114.85,296.2,100,40,6.69,ID
97,kavieng,-2.5744,150.7967,302.28,67,99,5.67,PG
98,labuhan,-6.8844,112.2051,298.04,87,100,3.12,ID
99,sovetskaya gavan,48.9723,140.2878,255.69,97,99,1.72,RU
100,vostok,46.4856,135.8833,250.83,97,100,2.87,RU
101,alta floresta,-9.8756,-56.0861,297.38,92,14,0.85,BR
102,port alfred,-33.5906,26.891,293.25,89,27,1.34,ZA
103,kirakira,-10.4544,161.9205,302.14,74,37,2.12,SB
104,atar,20.5169,-13.0499,294.56,12,100,2.25,MR
105,tasiilaq,65.6145,-37.6368,265.24,77,100,13.4,GL
106,jacareacanga,-6.2222,-57.7528,297.84,93,99,0.97,BR
107,boden,65.8252,21.6886,268.15,96,100,2.05,SE
108,nouadhibou,20.931,-17.0347,290.06,76,100,9.27,MR
109,luderitz,-26.6481,15.1594,291.54,74,0,8.67,NA
110,new norfolk,-42.7826,147.0587,286.42,53,100,0.45,AU
111,posevnaya,54.3006,83.3297,252.6,100,45,1.82,RU
112,bengkulu,-3.8004,102.2655,296.86,89,100,2.33,ID
113,provideniya,64.3833,-173.3,269.21,93,75,5.0,RU
114,castro,-24.7911,-50.0119,291.2,96,100,1.14,BR
115,comodoro rivadavia,-45.8667,-67.5,293.88,53,0,4.63,AR
116,atambua,-9.1061,124.8925,296.92,90,100,0.19,ID
117,xuddur,4.1213,43.8894,298.08,31,57,4.54,SO
118,sao geraldo do araguaia,-6.4006,-48.555,296.37,96,100,1.41,BR
119,clyde river,70.4692,-68.5914,237.75,84,16,1.46,CA
120,pisco,-13.7,-76.2167,299.18,73,0,9.77,PE
121,vesoul,47.5833,5.8333,278.6,83,100,4.48,FR
122,jishu,44.3167,126.8,254.2,100,91,2.9,CN
123,nhulunbuy,-12.2333,136.7667,301.49,83,100,3.09,AU
124,kaitangata,-46.2817,169.8464,295.59,71,57,0.87,NZ
125,atuona,-9.8,-139.0333,299.21,75,76,7.84,PF
126,bafoulabe,13.8065,-10.8321,301.31,12,74,2.09,ML
127,vestmannaeyjar,63.4427,-20.2734,275.09,69,99,10.09,IS
128,plettenberg bay,-34.0527,23.3716,291.42,82,1,1.83,ZA
129,rajanpur,29.1035,70.325,287.36,32,0,1.88,PK
130,arica,-18.475,-70.3042,300.9,61,0,5.14,CL
131,mormugao,15.4,73.8,297.37,52,45,2.64,IN
132,kawalu,-7.3817,108.2082,295.56,92,100,1.01,ID
133,rolante,-29.6506,-50.5758,301.85,71,26,2.48,BR
134,saskylakh,71.9167,114.0833,248.85,98,100,4.39,RU
135,cabo san lucas,22.8909,-109.9124,295.32,52,75,5.14,MX
136,nantucket,41.2835,-70.0995,272.23,68,40,2.57,US
137,victoria,22.2855,114.1577,293.68,86,5,0.45,HK
138,ouro fino,-22.2831,-46.3692,292.33,97,100,1.82,BR
139,varzea grande,-15.6467,-56.1325,300.08,83,75,1.54,BR
140,ponta do sol,32.6667,-17.1,290.5,51,75,4.59,PT
141,college,64.8569,-147.8028,262.48,85,100,1.54,US
142,luza,60.6308,47.2512,269.08,96,100,2.48,RU
143,thinadhoo,0.5333,72.9333,300.19,75,14,6.43,MV
144,pangnirtung,66.1451,-65.7125,243.65,76,99,0.85,CA
145,bredasdorp,-34.5322,20.0403,292.94,73,100,2.5,ZA
146,north platte,41.1239,-100.7654,273.77,62,0,4.12,US
147,charters towers,-20.1,146.2667,301.16,61,77,4.51,AU
148,sitka,57.0531,-135.33,280.09,61,100,4.63,US
149,mar del plata,-38.0023,-57.5575,294.79,77,100,3.58,AR
150,imeni poliny osipenko,52.4201,136.4853,235.71,100,49,0.33,RU
151,katav-ivanovsk,54.7531,58.1956,257.15,94,16,1.88,RU
152,gasa,31.5,34.4667,283.08,49,87,13.02,PS
153,lincoln,40.8,-96.667,277.35,65,0,5.14,US
154,otavi,-19.65,17.3333,291.24,90,100,1.86,NA
155,vilyuysk,63.7553,121.6247,249.88,98,100,2.04,RU
156,bambous virieux,-20.3428,57.7575,297.16,84,24,5.15,MU
157,mahebourg,-20.4081,57.7,297.18,83,22,5.15,MU
158,san quintin,30.4833,-115.95,287.82,55,1,3.95,MX
159,vila velha,-20.3297,-40.2925,300.12,83,20,6.69,BR
160,vaini,-21.2,-175.2,302.24,79,75,7.72,TO
161,southbridge,42.0751,-72.0334,272.27,47,27,0.45,US
162,marshall,34.3834,-86.3333,281.11,84,100,3.09,US
163,sangmelima,2.9333,11.9833,293.42,85,25,1.49,CM
164,avarua,-21.2078,-159.775,300.18,83,75,4.12,CK
165,palu,-0.8917,119.8707,297.15,96,100,0.95,ID
166,log,49.4844,43.8613,270.53,82,100,3.48,RU
167,komsomolskiy,40.4272,71.7189,273.55,74,100,0.0,UZ
168,rawson,-43.3002,-65.1023,295.05,49,81,9.61,AR
169,huaibei,33.9744,116.7917,271.83,42,92,3.9,CN
170,mehamn,71.0357,27.8492,272.1,69,100,5.73,NO
171,longyearbyen,78.2186,15.6401,263.06,67,20,8.75,SJ
172,saint-philippe,-21.3585,55.7679,296.92,83,55,3.79,RE
173,tigil,57.8,158.6667,246.71,94,44,2.14,RU
174,aberdeen,57.1437,-2.0981,278.45,80,100,2.57,GB
175,nikolskoye,59.7035,30.7861,273.09,96,100,2.72,RU
176,faya,18.3851,42.4509,286.44,66,3,1.95,SA
177,melito di porto salvo,37.9222,15.7714,284.14,70,84,2.57,IT
178,coahuayana,18.7333,-103.6833,302.61,41,78,2.85,MX
179,morgan city,29.6994,-91.2068,289.27,82,100,2.57,US
180,liku,-0.7275,119.8922,296.6,94,100,0.58,ID
181,garmsar,35.2182,52.3409,279.68,52,0,2.98,IR
182,palau,7.503,134.621,298.13,88,75,4.12,PW
183,nioro,13.35,-15.75,300.1,15,7,3.4,GM
184,aklavik,68.2191,-135.0107,241.78,99,99,3.03,CA
185,copiapo,-27.3667,-70.3333,292.98,40,18,3.65,CL
186,lavrentiya,65.5833,-171.0,264.73,95,100,1.98,RU
187,sobolevo,54.4299,31.8996,270.9,96,100,5.65,RU
188,diego de almagro,-26.3667,-70.05,299.67,33,10,5.98,CL
189,kahului,20.8947,-156.47,299.73,78,20,5.14,US
190,leningradskiy,69.3833,178.4167,250.74,99,86,2.87,RU
191,san jose,37.3394,-121.895,290.88,35,75,3.6,US
192,chudniv,50.052,28.1175,273.19,88,99,5.53,UA
193,fortuna,40.5982,-124.1573,288.11,57,0,4.12,US
194,quirinopolis,-18.4483,-50.4517,297.08,83,58,2.28,BR
195,burnie,-41.0667,145.9167,285.9,81,100,7.43,AU
196,buzuluk,52.7807,52.2635,256.94,93,95,1.43,RU
197,moerai,-22.4333,-151.3333,299.7,78,50,5.79,PF
198,geraldton,-28.7667,114.6,300.38,39,0,2.06,AU
199,turka,49.1541,23.0297,272.48,96,100,3.24,UA
200,severo-kurilsk,50.6789,156.125,266.86,75,79,2.61,RU
201,kodiak,57.79,-152.4072,276.88,70,0,3.09,US
202,anloga,5.7947,0.8973,299.72,85,3,4.84,GH
203,atasu,48.6814,71.6433,257.43,96,34,3.88,KZ
204,rurrenabaque,-14.4413,-67.5278,299.44,84,100,0.78,BO
205,kayes,14.0,-11.0,300.67,11,58,2.68,ML
206,san andres,12.5847,-81.7006,300.16,78,100,6.69,CO
207,cayenne,4.9333,-52.3333,296.17,100,100,4.12,GF
208,shirokiy,49.758,129.523,244.37,97,11,2.55,RU
209,tamandare,-8.7597,-35.1047,299.3,77,19,2.99,BR
210,brae,60.3964,-1.353,278.25,64,100,6.19,GB
211,ostrovnoy,68.0531,39.5131,264.85,92,96,8.52,RU
212,sonegaon,20.65,78.6833,290.66,29,4,3.24,IN
213,port-gentil,-0.7193,8.7815,301.13,83,40,3.09,GA
214,polur,12.5,79.1333,294.56,84,100,2.24,IN
215,nisia floresta,-6.0911,-35.2086,300.6,76,25,3.42,BR
216,monte carmelo,-18.7247,-47.4986,294.57,81,100,1.8,BR
217,viedma,-40.8135,-62.9967,296.87,45,25,8.08,AR
218,urdoma,61.7533,48.5442,269.33,95,100,3.09,RU
219,lebu,-37.6167,-73.65,288.66,75,0,9.84,CL
220,chokurdakh,70.6333,147.9167,248.88,98,100,0.87,RU
221,weihai,37.5017,122.1136,271.89,45,100,6.85,CN
222,hambantota,6.1241,81.1185,297.52,90,100,2.57,LK
223,flinders,-34.5833,150.8552,297.25,80,6,3.13,AU
224,ulaangom,49.9811,92.0667,247.0,95,98,0.84,MN
225,faanui,-16.4833,-151.75,300.91,73,76,8.46,PF
226,torres,-29.3353,-49.7269,299.16,84,11,1.52,BR
227,saint-francois,46.4154,3.9054,277.84,80,100,2.06,FR
228,sal rei,16.1833,-22.9167,293.9,73,83,9.03,CV
229,karratha,-20.7377,116.8463,302.26,69,6,3.36,AU
230,shenjiamen,29.9576,122.298,280.21,69,100,8.26,CN
231,stromness,58.965,-3.296,278.64,79,100,3.13,GB
232,samarai,-10.6167,150.6667,300.9,80,97,4.65,PG
233,morgantown,39.6295,-79.9559,273.88,62,0,0.0,US
234,madingou,-4.1536,13.55,296.43,90,11,0.35,CG
235,fort william,56.8165,-5.1121,280.54,96,100,2.07,GB
236,santa cruz de tenerife,28.4682,-16.2546,289.05,84,20,3.6,ES
237,cockburn town,21.4612,-71.1419,297.99,76,9,8.0,TC
238,salalah,17.0151,54.0924,297.2,57,75,2.57,OM
239,platanos,37.6667,21.6167,278.75,58,25,1.73,GR
240,hami,42.8,93.45,266.47,71,30,2.01,CN
241,saldanha,-33.0117,17.9442,290.6,88,1,7.37,ZA
242,novosheshminsk,55.0651,51.2338,255.42,90,88,1.99,RU
243,bartica,6.4,-58.6167,298.33,91,74,1.69,GY
244,anjiang,27.3194,110.1031,284.23,48,100,2.02,CN
245,adrar,20.5022,-10.0711,290.89,12,100,4.72,MR
246,ilulissat,69.2167,-51.1,264.16,62,75,10.29,GL
247,qidong,31.8128,121.6561,277.0,67,14,5.65,CN
248,rincon,32.296,-81.2354,299.13,50,75,4.63,US
249,okakarara,-20.5833,17.4333,290.75,93,99,1.86,NA
250,filingue,14.3521,3.3168,299.17,14,86,2.75,NE
251,nanortalik,60.1432,-45.2371,267.86,76,100,3.07,GL
252,boca do acre,-8.7522,-67.3978,300.3,84,81,0.53,BR
253,benevides,-1.3614,-48.2447,299.04,98,100,0.48,BR
254,acapulco,16.8634,-99.8901,303.05,66,0,4.63,MX
255,figeac,44.75,1.9167,274.36,95,5,1.76,FR
256,freeport,40.6576,-73.5832,277.02,47,0,5.66,US
257,hasaki,35.7333,140.8333,273.37,45,78,7.73,JP
258,gwanda,-20.9333,29.0,293.7,86,85,2.31,ZW
259,kailua,21.4022,-157.7394,301.14,76,20,3.09,US
260,chitipa,-9.7024,33.2697,289.86,95,69,1.1,MW
261,asyut,27.181,31.1837,284.69,53,33,4.09,EG
262,omboue,-1.5746,9.2618,298.99,88,100,1.43,GA
263,mandalgovi,45.7625,106.2708,260.43,63,100,1.46,MN
264,port macquarie,-31.4333,152.9167,299.76,85,34,3.44,AU
265,necochea,-38.5473,-58.7368,293.16,72,94,6.25,AR
266,klaksvik,62.2266,-6.589,272.66,64,81,1.75,FO
267,funtua,11.5233,7.3081,294.84,17,100,4.29,NG
268,beringovskiy,63.05,179.3167,268.35,97,100,3.45,RU
269,alofi,-19.0595,-169.9187,298.09,94,100,4.12,NU
270,haines junction,60.7522,-137.5108,260.58,92,100,0.96,CA
271,magangue,9.242,-74.7547,307.11,27,5,1.47,CO
272,xai-xai,-25.0519,33.6442,296.74,82,72,4.0,MZ
273,buala,-8.145,159.5921,301.27,76,100,2.55,SB
274,semibratovo,57.3046,39.5369,271.07,97,96,3.36,RU
275,verkhnyaya inta,65.9811,60.3094,269.23,88,91,8.09,RU
276,wanning,18.8003,110.3967,294.39,93,87,1.58,CN
277,asasa,7.1,39.2,286.53,47,13,0.59,ET
278,sechura,-5.5569,-80.8222,299.66,65,30,7.83,PE
279,chara,56.9064,118.2631,246.32,77,53,1.03,RU
280,warrnambool,-38.3833,142.4833,287.12,65,100,9.53,AU
281,bermeo,43.4209,-2.7215,281.87,80,20,2.13,ES
282,walvis bay,-22.9575,14.5053,290.98,84,85,5.29,NA
283,lagoa,39.05,-27.9833,286.82,70,43,2.35,PT
284,markova,48.6758,24.4138,274.5,68,89,4.84,UA
285,mabaruma,8.2,-59.7833,296.51,78,54,1.96,GY
286,coihaique,-45.5752,-72.0662,294.12,37,0,5.14,CL
287,vallenar,-28.5708,-70.7581,301.12,31,12,3.48,CL
288,souillac,-20.5167,57.5167,298.56,86,35,4.36,MU
289,isangel,-19.55,169.2667,301.75,73,6,1.78,VU
290,narsaq,60.9167,-46.05,267.27,93,100,1.9,GL
291,benjamin hill,30.1667,-111.1,286.36,49,80,5.63,MX
292,bullhead city,35.1478,-114.5683,291.33,17,0,11.32,US
293,saint george,37.1041,-113.5841,282.83,25,0,1.79,US
294,neyshabur,36.2133,58.7958,277.82,81,52,0.89,IR
295,havre-saint-pierre,50.2334,-63.5986,254.35,84,75,0.0,CA
296,yulara,-25.2406,130.9889,295.33,42,0,5.2,AU
297,yerofey pavlovich,53.9667,121.9667,243.5,96,29,1.67,RU
298,acarau,-2.8856,-40.12,299.51,80,100,6.01,BR
299,savannah bight,16.45,-85.85,299.49,75,48,10.06,HN
300,chuy,-33.6971,-53.4616,297.01,74,19,5.56,UY
301,ayan,56.45,138.1667,248.42,76,84,4.02,RU
302,grindavik,63.8424,-22.4338,273.41,74,100,8.75,IS
303,kalmunai,7.4167,81.8167,298.01,90,100,5.19,LK
304,mamallapuram,12.6264,80.1722,299.18,81,100,6.3,IN
305,blackwater,-23.5833,148.8833,300.56,67,40,1.77,AU
306,humboldt,40.6665,-123.9178,281.26,37,100,1.22,US
307,hukuntsi,-24.0,21.75,296.64,63,78,1.68,BW
308,chemodanovka,53.2316,45.2474,265.87,93,100,3.01,RU
309,luis correia,-2.8792,-41.6669,299.27,84,70,5.81,BR
310,puerto narino,-3.7703,-70.3831,298.2,94,97,0.9,CO
311,vysokogornyy,50.1167,139.15,246.13,100,99,1.05,RU
312,emilio carranza,19.9711,-96.6114,292.21,84,97,4.31,MX
313,mallaig,54.2169,-111.3685,251.88,81,100,4.89,CA
314,shahpura,27.3833,75.9667,284.98,38,0,2.1,IN
315,mildura,-34.2,142.15,288.75,56,13,3.91,AU
316,vanavara,60.34,102.2797,247.03,100,99,1.66,RU
317,dunedin,-45.8742,170.5036,293.6,82,42,3.13,NZ
318,margate,51.3813,1.3862,281.31,77,97,1.34,GB
319,redcar,54.6166,-1.06,282.5,63,98,4.02,GB
320,tucupita,9.0622,-62.051,298.66,68,22,2.56,VE
321,kattivakkam,13.2167,80.3167,299.2,77,100,5.77,IN
322,vakhrushev,48.9833,142.9667,253.68,90,100,3.08,RU
323,njeru,0.4186,33.1731,292.51,79,53,0.87,UG
324,katsuura,35.1333,140.3,280.18,53,74,6.91,JP
325,kincardine,56.0667,-3.7167,282.9,94,100,5.09,GB
326,mariel,22.9875,-82.7536,300.23,68,6,6.69,CU
327,darovskoy,58.77,47.9564,268.19,96,100,3.62,RU
328,gummidipundi,13.4,80.15,299.15,81,100,3.78,IN
329,fort nelson,58.8053,-122.7002,251.87,83,18,2.25,CA
330,marsh harbour,26.5412,-77.0636,296.74,74,35,0.42,BS
331,korla,41.7597,86.1469,266.43,78,3,1.73,CN
332,mayaky,47.4408,29.5599,271.57,86,78,2.89,UA
333,sand springs,36.1398,-96.1089,273.71,53,0,0.45,US
334,kulu,39.0951,33.0799,269.07,78,25,5.89,TR
335,ust-ilimsk,58.0006,102.6619,256.94,98,100,1.43,RU
336,tilichiki,60.4667,166.1,255.72,98,74,2.79,RU
337,kununurra,-15.7667,128.7333,299.14,94,90,1.54,AU
338,prince rupert,54.3161,-130.3201,277.37,95,100,3.82,CA
339,antalaha,-14.9003,50.2788,297.14,92,100,3.22,MG
340,sibolga,1.7427,98.7792,297.03,78,100,2.29,ID
341,cariacica,-20.2639,-40.42,299.81,83,20,6.69,BR
342,loa janan,-0.583,117.095,296.04,100,100,0.46,ID
343,sinop,41.7711,34.8709,270.8,89,91,2.88,TR
344,gat,31.61,34.7642,284.86,100,91,11.09,IL
345,damghan,36.1683,54.348,277.17,69,4,1.38,IR
346,noumea,-22.2763,166.4572,302.14,99,27,0.54,NC
347,sao joao da barra,-21.6403,-41.0511,300.2,84,96,7.06,BR
348,coquimbo,-29.9533,-71.3436,294.0,68,0,5.14,CL
349,port hardy,50.6996,-127.4199,278.43,90,100,9.55,CA
350,mitu,1.1983,-70.1733,303.94,47,79,1.07,CO
351,tongliao,43.6125,122.2653,259.25,53,0,3.11,CN
352,beloha,-25.1667,45.05,294.38,85,16,6.67,MG
353,port keats,-14.25,129.55,300.15,87,100,3.66,AU
354,shalinskoye,55.7228,93.7594,251.41,100,94,1.76,RU
355,bijie,27.3125,105.2942,280.5,81,100,2.23,CN
356,khudumelapye,-23.8833,24.75,294.73,68,79,2.29,BW
357,lasa,46.6166,10.7002,272.42,93,57,2.93,IT
358,guozhen,34.3659,107.359,275.49,41,100,1.24,CN
359,cap malheureux,-19.9842,57.6142,297.3,82,8,0.89,MU
360,cangzhou,38.3167,116.8667,270.92,26,100,1.95,CN
361,teguldet,57.3064,88.1667,247.32,100,100,1.06,RU
362,seybaplaya,19.65,-90.6667,304.85,65,17,3.86,MX
363,port augusta,-32.5,137.7667,289.61,52,1,6.94,AU
364,aljezur,37.3191,-8.8033,281.33,72,0,2.09,PT
365,pinega,64.7001,43.3936,268.34,92,99,3.69,RU
366,yar-sale,66.8333,70.8333,258.7,97,58,4.06,RU
367,wexford,52.3342,-6.4575,282.11,86,96,5.36,IE
368,puerto carreno,6.189,-67.4859,306.3,29,2,5.27,CO
369,castlerea,53.7667,-8.5,281.46,90,88,5.98,IE
370,vanimo,-2.6741,141.3028,298.97,83,70,1.7,PG
371,taoudenni,22.6783,-3.9836,289.18,16,98,4.76,ML
372,petropavlovsk-kamchatskiy,53.0452,158.6483,253.58,78,0,5.0,RU
373,awbari,26.5921,12.7805,282.09,44,0,3.37,LY
374,saint-pierre,-21.3393,55.4781,296.97,78,20,1.54,RE
375,vila franca do campo,37.7167,-25.4333,286.38,76,99,2.7,PT
376,porbandar,21.6422,69.6093,292.07,35,80,5.66,IN
377,ossora,59.2353,163.0719,262.39,81,100,2.95,RU
378,antofagasta,-23.65,-70.4,294.75,77,45,3.33,CL
379,madang,-5.2246,145.7966,297.64,92,100,3.32,PG
380,boa vista,2.8197,-60.6733,303.14,51,75,4.12,BR
381,broken hill,-31.95,141.4333,289.96,59,0,5.17,AU
382,vila do maio,15.1333,-23.2167,294.59,73,18,8.47,CV
383,lorengau,-2.0226,147.2712,301.24,69,95,2.33,PG
384,mnogovershinnyy,53.9353,139.9242,242.03,96,77,1.72,RU
385,sao filipe,14.8961,-24.4956,294.97,71,22,6.44,CV
386,sinazongwe,-17.2614,27.4618,296.31,88,95,1.32,ZM
387,sao gabriel da cachoeira,-0.1303,-67.0892,299.72,84,87,0.59,BR
388,cherskiy,68.75,161.3,251.55,99,100,1.77,RU
389,mbanza-ngungu,-5.25,14.8667,293.55,92,9,1.49,CD
390,rokytne,51.2796,27.214,273.62,94,100,4.28,UA
391,djibo,14.1022,-1.6306,298.07,7,36,3.86,BF
392,shunyi,40.125,116.6453,265.12,45,0,2.0,CN
393,husavik,66.0449,-17.3389,268.69,90,97,3.82,IS
394,kavaratti,10.5669,72.642,299.68,79,77,6.09,IN
395,klamath falls,42.2249,-121.7817,280.96,44,0,2.06,US
396,san miguel,13.4833,-88.1833,309.36,22,81,3.98,SV
397,ilyich,40.8464,68.5067,276.08,77,100,3.09,KZ
398,dongsheng,39.8161,109.9776,265.16,19,100,1.71,CN
399,nago,26.5881,127.9761,290.62,84,96,4.2,JP
400,seoul,37.5683,126.9778,268.84,66,0,1.54,KR
401,pierre,44.3683,-100.351,274.66,55,0,4.63,US
402,boueni,-12.9025,45.0761,300.14,80,52,2.75,YT
403,kumano,34.3442,132.5894,278.66,80,100,3.79,JP
404,sonoita,31.85,-112.8333,288.2,49,51,4.06,MX
405,acari,-15.4311,-74.6158,298.37,82,86,3.6,PE
406,camana,-16.6228,-72.7111,297.04,84,78,2.59,PE
407,bud,39.447,-86.1758,273.05,45,73,0.94,US
408,tromso,69.6496,18.957,269.47,93,75,0.0,NO
409,jatai,-17.8814,-51.7144,296.28,82,100,1.9,BR
410,egvekinot,66.3167,-179.1667,259.15,94,92,3.23,RU
411,tortosa,40.8125,0.5216,279.4,76,0,2.98,ES
412,basoko,1.2391,23.616,295.77,82,77,2.24,CD
413,wajima,37.4,136.9,275.3,63,100,7.68,JP
414,eguia,15.9065,119.8858,297.02,82,6,2.96,PH
415,najran,17.4924,44.1277,291.18,32,29,0.88,SA
416,maracacume,-2.0428,-45.9592,295.81,98,100,1.24,BR
417,tahe,52.3333,124.7333,245.79,93,6,2.01,CN
418,balsas,-7.5325,-46.0356,300.35,61,79,1.04,BR
419,gorom-gorom,14.4439,-0.2361,298.57,6,82,4.02,BF
420,anderson,34.5334,-82.6499,291.62,67,100,3.09,US
421,yuxia,34.0615,108.6291,276.33,46,100,0.81,CN
422,tabas,33.5959,56.9244,284.14,80,85,1.93,IR
423,asau,46.4333,26.4,275.66,93,87,2.99,RO
424,yatou,37.15,122.3833,271.08,49,100,5.23,CN
425,bella vista,36.4295,-94.2316,274.17,60,0,0.45,US
426,pogar,52.554,33.2591,271.02,96,100,5.34,RU
427,atyrau,47.1167,51.8833,272.16,74,75,3.0,KZ
428,iracoubo,5.4802,-53.2011,297.63,87,91,3.2,GF
429,putina,-15.4667,-69.4333,283.82,60,100,4.59,PE
430,waipawa,-41.4122,175.5153,295.07,68,100,3.6,NZ
431,batagay,67.6333,134.6333,235.98,99,90,0.72,RU
432,thurso,58.5927,-3.5259,278.63,76,100,4.52,GB
433,tateyama,34.9833,139.8667,279.32,57,70,6.8,JP
434,kenai,60.5544,-151.2583,272.64,93,100,0.0,US
435,vigrestad,58.5667,5.7,277.92,75,5,10.62,NO
436,kulhudhuffushi,6.6221,73.07,300.33,74,82,6.13,MV
437,basco,20.4487,121.9702,296.99,79,100,6.28,PH
438,nizhnevartovsk,60.9344,76.5531,264.16,100,100,3.0,RU
439,fairbanks,64.8378,-147.7164,262.49,84,100,1.54,US
440,mindelo,16.8901,-24.9804,293.9,64,40,12.35,CV
441,santa rosa,14.3122,121.1114,299.31,89,68,3.71,PH
442,iqaluit,63.7506,-68.5145,245.2,50,100,1.34,CA
443,soyo,-6.1349,12.3689,299.39,80,8,3.66,AO
444,meoqui,28.2833,-105.4833,283.22,77,100,2.98,MX
445,chapais,49.7834,-74.8492,259.03,96,100,1.93,CA
446,tura,25.5198,90.2201,285.67,48,3,1.34,IN
447,kutum,14.2,24.6667,290.28,23,76,5.09,SD
448,codrington,-38.2667,141.9667,287.27,63,100,8.4,AU
449,laguna,38.421,-121.4238,288.75,47,0,2.06,US
450,diffa,13.3154,12.6113,296.17,25,100,4.89,NE
451,jiwani,25.05,61.7417,293.45,61,0,0.39,PK
452,polohy,47.4844,36.2536,272.86,80,100,2.08,UA
453,buchanan,5.8808,-10.0467,299.49,87,25,2.51,LR
454,mount gambier,-37.8333,140.7667,286.98,73,99,6.69,AU
455,trelleborg,55.3751,13.1569,277.56,94,100,10.13,SE
456,alihe,50.5667,123.7167,244.84,98,5,1.76,CN
457,talnakh,69.4865,88.3972,260.49,95,100,4.38,RU
458,xinye,32.5186,112.3522,275.91,20,100,5.83,CN
459,aksu,41.1231,80.2644,262.81,88,24,2.48,CN
460,mahon,39.8885,4.2658,282.46,81,0,3.09,ES
461,xining,36.6167,101.7667,266.25,52,100,0.85,CN
462,vila,42.0304,-8.1588,275.64,79,3,1.71,PT
463,allonnes,47.9674,0.1581,280.17,81,0,2.06,FR
464,hit,33.6416,42.8251,285.71,55,32,4.61,IQ
465,ginir,7.1333,40.7,287.69,52,0,2.3,ET
466,shingu,33.7333,135.9833,277.7,82,100,2.87,JP
467,saint-augustin,51.226,-58.6502,252.99,89,83,1.58,CA
468,banjar,-8.19,114.9675,297.7,96,100,1.19,ID
469,oga,46.4631,10.347,271.45,95,38,1.85,IT
470,narasannapeta,18.4167,84.05,292.76,57,24,2.42,IN
471,santiago del estero,-27.7951,-64.2615,309.75,24,2,4.63,AR
472,maringa,-23.4253,-51.9386,295.99,88,69,1.92,BR
473,verkhnevilyuysk,63.4453,120.3167,249.9,97,100,2.8,RU
474,hamilton,39.1834,-84.5333,273.67,43,0,0.45,US
475,kargil,34.5667,76.1,256.41,88,100,0.47,IN
476,whitehorse,60.7161,-135.0538,264.32,68,100,7.15,CA
477,ndola,-12.9587,28.6366,290.53,97,80,0.21,ZM
478,kandrian,-6.2167,149.55,299.61,84,100,4.33,PG
479,bubaque,11.2833,-15.8333,298.44,71,8,6.47,GW
480,eregli,37.5133,34.0467,269.45,97,80,3.95,TR
481,ahipara,-35.1667,173.1667,296.17,76,100,3.55,NZ
482,bandarban,22.1965,92.2262,289.69,69,91,1.3,BD
483,asia,9.5506,122.5164,298.24,82,42,4.17,PH
484,havoysund,70.9963,24.6622,273.28,62,100,5.66,NO
485,amot,59.5714,7.9877,268.02,93,58,2.45,NO
486,krasnoselkup,65.7,82.4667,258.45,97,93,4.49,RU
487,arlit,18.7369,7.3853,292.6,15,9,3.87,NE
488,strezhevoy,60.7333,77.5889,258.22,99,95,2.31,RU
489,chicama,-7.8447,-79.1469,295.45,56,48,4.19,PE
490,wewak,-3.5534,143.6268,298.79,82,98,1.99,PG
491,samana,19.2056,-69.3369,298.13,70,17,4.5,DO
492,maniitsoq,65.4167,-52.9,258.19,84,87,2.97,GL
493,sabang,5.8933,95.3214,300.6,77,93,4.75,ID
494,nyakahanga,-1.6033,31.1414,288.0,80,6,1.04,TZ
495,sokolo,14.7328,-6.1219,297.89,11,33,3.87,ML
496,jalu,29.0331,21.5482,284.87,54,6,4.36,LY
497,gwadar,25.1216,62.3254,292.96,62,0,1.08,PK
498,puerto palomas,31.7667,-107.6167,285.67,39,15,4.13,MX
499,puerto del rosario,28.5004,-13.8627,291.01,45,20,6.17,ES
500,maputo,-25.9653,32.5892,298.97,78,75,3.09,MZ
501,port blair,11.6667,92.75,298.8,75,34,2.41,IN
502,cap-aux-meules,47.3821,-61.8597,265.68,57,89,3.87,CA
503,emerald,-23.5333,148.1667,300.56,87,52,0.6,AU
504,carauari,-4.8828,-66.8958,298.71,93,100,1.05,BR
505,oyama,36.3,139.8,280.14,28,47,7.37,JP
506,maku,39.2911,44.4521,273.32,73,90,1.37,IR
507,salym,60.0625,71.4789,260.6,99,98,1.97,RU
508,auchi,7.0667,6.2667,300.74,57,3,3.1,NG
509,gubkinskiy,64.434,76.5026,258.99,96,21,5.02,RU
510,qui nhon,13.7667,109.2333,295.57,89,100,2.64,VN
511,erzin,36.9559,36.2,279.31,88,100,2.25,TR
512,canon city,38.441,-105.2424,282.43,22,0,7.2,US
513,pascagoula,30.3658,-88.5561,291.18,82,100,2.06,US
514,cabrobo,-8.5142,-39.31,299.85,56,79,4.07,BR
515,touros,-5.1989,-35.4608,300.11,74,100,5.48,BR
516,tagbina,8.4519,126.1714,296.13,98,100,1.38,PH
517,jiazi,22.8779,116.067,290.38,85,12,4.12,CN
518,sao cristovao,-11.0147,-37.2064,300.1,69,40,3.09,BR
519,mersing,2.4312,103.8405,297.72,91,100,3.92,MY
520,pecos,31.4229,-103.4932,273.2,86,100,2.06,US
521,pacifica,37.6138,-122.4869,288.93,49,75,3.58,US
522,mount isa,-20.7333,139.5,299.02,78,100,3.09,AU
523,xiangxiang,27.7333,112.5333,283.23,39,100,6.12,CN
